id;city_state;name;address;open_now;business_status;latitude;longitude;weekday_text;types;search_type;viewport
ChIJxT7ECHgzWpMRLc20VY3dqLA;Brasília/DF;Heliponto - Águas Claras - SIHQ;Águas Claras, Brasília;False;OPERATIONAL;-15.8275313;-48.0231491;"[""Não disponível""]";"[""airport"", ""point_of_interest"", ""establishment""]";airport;{'northeast': {'lat': -15.82616381970849, 'lng': -48.02217419999999}, 'southwest': {'lat': -15.8288617802915, 'lng': -48.02607379999999}}
ChIJyfuaZ7czWpMRXKDHQKLRZkU;Brasília/DF;Mais Seg Soluções em Serviços Auxiliares de Transporte Aéreo LTDA;Rua 25 Sul - Águas Claras, Brasília;False;OPERATIONAL;-15.8438473;-48.0297199;"[""Não disponível""]";"[""airport"", ""point_of_interest"", ""establishment""]";airport;{'northeast': {'lat': -15.8425792197085, 'lng': -48.0283491197085}, 'southwest': {'lat': -15.8452771802915, 'lng': -48.0310470802915}}
ChIJCydVxWszWpMRps9dwZzvNT0;Brasília/DF;Batalhão de Aviação Operacional - PMDF;AE 10 - Guará, Brasília;False;OPERATIONAL;-15.8427813;-47.9648073;"[""Não disponível""]";"[""airport"", ""point_of_interest"", ""establishment""]";airport;{'northeast': {'lat': -15.8413442197085, 'lng': -47.9634636197085}, 'southwest': {'lat': -15.8440421802915, 'lng': -47.9661615802915}}
ChIJbdeNn0YxWpMRE5DIamel8yM;Brasília/DF;Heringuer aviação;Setor Leste - de hangares, Brasília;False;OPERATIONAL;-15.7826946;-47.9890526;"[""Não disponível""]";"[""airport"", ""point_of_interest"", ""establishment""]";airport;{'northeast': {'lat': -15.7813160197085, 'lng': -47.9876929697085}, 'southwest': {'lat': -15.7840139802915, 'lng': -47.9903909302915}}
ChIJ94ZVmtgyWpMRn1jSqf7P4RY;Brasília/DF;Heliponto - Hospital Anchieta - SJDF;Setor C Norte Qnc 15 Qnc Ae 10 15 - Taguatinga, Brasília;False;OPERATIONAL;-15.8241022;-48.0672515;"[""Não disponível""]";"[""airport"", ""point_of_interest"", ""establishment""]";airport;{'northeast': {'lat': -15.8228653697085, 'lng': -48.0658637697085}, 'southwest': {'lat': -15.82556333029151, 'lng': -48.06856173029149}}
ChIJFRmYKAA1WpMRf_E5WZfKC4Q;Brasília/DF;Aeroclube Motofly;6XG8+5Q - Taguatinga, Brasília;False;OPERATIONAL;-15.774521;-48.033039;"[""Não disponível""]";"[""airport"", ""point_of_interest"", ""establishment""]";airport;{'northeast': {'lat': -15.7731530197085, 'lng': -48.03105701970851}, 'southwest': {'lat': -15.7758509802915, 'lng': -48.0337549802915}}
ChIJUwqkZrsxWpMRfluYyPRW7I4;Brasília/DF;Heliponto - HFA;Setor Sudoeste - Cruzeiro / Sudoeste / Octogonal, Brasília;False;OPERATIONAL;-15.8036837;-47.93706880000001;"[""Não disponível""]";"[""airport"", ""point_of_interest"", ""establishment""]";airport;{'northeast': {'lat': -15.8025260197085, 'lng': -47.9355742697085}, 'southwest': {'lat': -15.8052239802915, 'lng': -47.9382722302915}}
ChIJv16_xfYvWpMRgSkrG5WApnU;Brasília/DF;Pista de Aeromodelismo;Brasília;False;OPERATIONAL;-15.8402433;-47.9260695;"[""Não disponível""]";"[""airport"", ""point_of_interest"", ""establishment""]";airport;{'northeast': {'lat': -15.8388968697085, 'lng': -47.9245201197085}, 'southwest': {'lat': -15.8415948302915, 'lng': -47.9272180802915}}
ChIJJ4a1e80uWpMRLEeMM9FMy38;Brasília/DF;Heliponto - Parkway - SJWY;Park Way Q 26 Conjunto 1 - Núcleo Bandeirante, Brasília;False;OPERATIONAL;-15.9116874;-47.9717637;"[""Não disponível""]";"[""airport"", ""point_of_interest"", ""establishment""]";airport;{'northeast': {'lat': -15.9105200697085, 'lng': -47.9700067197085}, 'southwest': {'lat': -15.9132180302915, 'lng': -47.9727046802915}}
ChIJNcp2ZwwvWpMRrXGZmh4TkHY;Brasília/DF;Terminal Executivo - Aeroporto de Brasília;Aeroporto JK 20 - Lago Sul, Brasília;True;OPERATIONAL;-15.8696223;-47.9303043;"[""segunda-feira: Atendimento 24 horas"", ""terça-feira: Atendimento 24 horas"", ""quarta-feira: Atendimento 24 horas"", ""quinta-feira: Atendimento 24 horas"", ""sexta-feira: Atendimento 24 horas"", ""sábado: Atendimento 24 horas"", ""domingo: Atendimento 24 horas""]";"[""airport"", ""point_of_interest"", ""establishment""]";airport;{'northeast': {'lat': -15.8683350697085, 'lng': -47.9289505697085}, 'southwest': {'lat': -15.8710330302915, 'lng': -47.9316485302915}}
ChIJc1Dgt6gvWpMRxxmaBOGflA8;Brasília/DF;CARGGO - Transportes de Cargas Aéreas e Rodoviárias, Brasília, DF;AEROPORTO INTERNACIONAL DE BRASILIA - TECA - 1º Andar, Sala 07 - Lago Sul, Brasília;True;OPERATIONAL;-15.8720018;-47.9223258;"[""segunda-feira: Atendimento 24 horas"", ""terça-feira: Atendimento 24 horas"", ""quarta-feira: Atendimento 24 horas"", ""quinta-feira: Atendimento 24 horas"", ""sexta-feira: Atendimento 24 horas"", ""sábado: Atendimento 24 horas"", ""domingo: Atendimento 24 horas""]";"[""airport"", ""meal_delivery"", ""food"", ""point_of_interest"", ""establishment""]";airport;{'northeast': {'lat': -15.8705690697085, 'lng': -47.9210295197085}, 'southwest': {'lat': -15.8732670302915, 'lng': -47.9237274802915}}
ChIJRdH4EGYlWpMR_ts3fnHD04M;Brasília/DF;Aptk Brasília;Presidente Juscelino Kubitschek S/Nº Píer Norte, nº 1195 CEP 71.608-900 - Lago Sul, Brasília;False;OPERATIONAL;-15.8704526;-47.9200482;"[""Não disponível""]";"[""airport"", ""point_of_interest"", ""establishment""]";airport;{'northeast': {'lat': -15.8694410697085, 'lng': -47.9191406697085}, 'southwest': {'lat': -15.8721390302915, 'lng': -47.9218386302915}}
ChIJQyttu4IlWpMRUIfuMAnj674;Brasília/DF;Aeroporto Internacional de Brasília - Presidente Juscelino Kubitschek;Lago Sul, Brasília;True;OPERATIONAL;-15.8706905;-47.91934839999999;"[""segunda-feira: 10:00 – 22:00"", ""terça-feira: 10:00 – 22:00"", ""quarta-feira: 10:00 – 22:00"", ""quinta-feira: 10:00 – 22:00"", ""sexta-feira: 10:00 – 22:00"", ""sábado: 10:00 – 22:00"", ""domingo: 14:00 – 20:00""]";"[""airport"", ""point_of_interest"", ""establishment""]";airport;{'northeast': {'lat': -15.8692091697085, 'lng': -47.91649389999998}, 'southwest': {'lat': -15.8719071302915, 'lng': -47.9279119}}
ChIJn4M9L4wlWpMRk2sKhgizz1Y;Brasília/DF;Ollé Viagens;Aeroporto Internacional de Brasília - Presidente Juscelino Kubitschek - único, Brasília;True;OPERATIONAL;-15.8698978;-47.9182851;"[""segunda-feira: 08:00 – 20:00"", ""terça-feira: 08:00 – 20:00"", ""quarta-feira: 08:00 – 20:00"", ""quinta-feira: 08:00 – 20:00"", ""sexta-feira: 08:00 – 20:00"", ""sábado: 08:00 – 14:00"", ""domingo: 08:00 – 14:00""]";"[""travel_agency"", ""airport"", ""local_government_office"", ""point_of_interest"", ""establishment""]";airport;{'northeast': {'lat': -15.869039, 'lng': -47.9169801}, 'southwest': {'lat': -15.8718938, 'lng': -47.92220009999999}}
ChIJIVl2jsrNW5MRFuVAUCvQXrc;Brasília/DF;Heliporto - HRC;Setor M Qnm 28 Conjunto H 155 - Ceilândia, Brasília;False;OPERATIONAL;-15.8163161;-48.09536440000001;"[""Não disponível""]";"[""airport"", ""point_of_interest"", ""establishment""]";airport;{'northeast': {'lat': -15.8148815197085, 'lng': -48.09407986970851}, 'southwest': {'lat': -15.8175794802915, 'lng': -48.09677783029151}}
ChIJNWM-53o6WpMRpaOyZBq86-s;Brasília/DF;Heliponto - PCDF - SWSW;10-40, SGO - Brasília;False;OPERATIONAL;-15.779781;-47.9132572;"[""Não disponível""]";"[""airport"", ""point_of_interest"", ""establishment""]";airport;{'northeast': {'lat': -15.7784709697085, 'lng': -47.9119221197085}, 'southwest': {'lat': -15.7811689302915, 'lng': -47.91462008029149}}
ChIJT9BcMQAlWpMRL3JsCoW9ZeE;Brasília/DF;Heliponto;19, Setor de Habitações Individuais Sul QL 10 - St. Hab Ind Sul, Brasília;False;OPERATIONAL;-15.8369529;-47.8859064;"[""Não disponível""]";"[""airport"", ""point_of_interest"", ""establishment""]";airport;{'northeast': {'lat': -15.8356248697085, 'lng': -47.88412586970851}, 'southwest': {'lat': -15.8383228302915, 'lng': -47.8868238302915}}
ChIJwcXmLwI7WpMRnMxVrVEBHCU;Brasília/DF;Heliponto Parque Cidade (SNCN, DF0016);SCS Quadra 6 BL A, Brasília;False;OPERATIONAL;-15.7956093;-47.89359099999999;"[""Não disponível""]";"[""airport"", ""point_of_interest"", ""establishment""]";airport;{'northeast': {'lat': -15.7943043197085, 'lng': -47.8921147697085}, 'southwest': {'lat': -15.7970022802915, 'lng': -47.8948127302915}}
ChIJqf1Ck2g6WpMR6Ytaq81kxEU;Brasília/DF;Grupamento de Aviação Operacional - GAvOp - CBMDF;SAM Lote D, módulo E, Brasília;True;OPERATIONAL;-15.774719;-47.9053205;"[""segunda-feira: 00:00 – 23:30"", ""terça-feira: 00:00 – 23:30"", ""quarta-feira: 00:00 – 23:30"", ""quinta-feira: 00:00 – 23:30"", ""sexta-feira: 00:00 – 23:30"", ""sábado: 00:00 – 23:30"", ""domingo: 00:00 – 23:30""]";"[""airport"", ""point_of_interest"", ""establishment""]";airport;{'northeast': {'lat': -15.7733802197085, 'lng': -47.90379831970851}, 'southwest': {'lat': -15.7760781802915, 'lng': -47.90649628029151}}
ChIJf2iGSwA7WpMRGpBFpQonMKg;Brasília/DF;Heliponto Do Beicuidar;Setor Hoteleiro Sul Quadra 6 902 - Asa Sul, Brasília;False;OPERATIONAL;-15.7929766;-47.8938169;"[""Não disponível""]";"[""airport"", ""point_of_interest"", ""establishment""]";airport;{'northeast': {'lat': -15.7916555697085, 'lng': -47.89229761970849}, 'southwest': {'lat': -15.7943535302915, 'lng': -47.89499558029149}}
