id;city_state;name;address;open_now;business_status;latitude;longitude;weekday_text;types;search_type;viewport
ChIJLSvZBgAzWpMRe-1j21u6Tdw;Brasília/DF;MAYANA;Rua 12 Norte 3 Edifício Miguel Luiz - Águas Claras, Brasília;False;OPERATIONAL;-15.8364352;-48.01846310000001;"[""Não disponível""]";"[""museum"", ""point_of_interest"", ""establishment""]";museum;{'northeast': {'lat': -15.8351459697085, 'lng': -48.0172465697085}, 'southwest': {'lat': -15.8378439302915, 'lng': -48.0199445302915}}
ChIJLTkPfVkzWpMRj3aVgNd3oWA;Brasília/DF;isaacrodriguesmc.com;Rua 19 Norte - Guará, Brasília;False;OPERATIONAL;-15.838817;-48.0242678;"[""Não disponível""]";"[""museum"", ""point_of_interest"", ""establishment""]";museum;{'northeast': {'lat': -15.8374680197085, 'lng': -48.0229188197085}, 'southwest': {'lat': -15.8401659802915, 'lng': -48.0256167802915}}
ChIJwdP_6OMxWpMR5sUTMzW4fEo;Brasília/DF;FAIXAS e Placas Letroarte;Guará II QE 40 Conjunto A - Guará 2, Brasília;True;OPERATIONAL;-15.8394454;-47.9865941;"[""segunda-feira: 08:00 – 18:00"", ""terça-feira: 08:00 – 18:00"", ""quarta-feira: 08:00 – 18:00"", ""quinta-feira: 08:00 – 18:00"", ""sexta-feira: 08:00 – 18:00"", ""sábado: 08:00 – 13:00"", ""domingo: Fechado""]";"[""museum"", ""store"", ""point_of_interest"", ""establishment""]";museum;{'northeast': {'lat': -15.8380863197085, 'lng': -47.9852058197085}, 'southwest': {'lat': -15.8407842802915, 'lng': -47.9879037802915}}
ChIJJblIQZwtWpMRfVlxPKhP9w8;Brasília/DF;HyperByte;Qse, Brasília;False;OPERATIONAL;-15.8565039;-48.0446112;"[""Não disponível""]";"[""museum"", ""point_of_interest"", ""establishment""]";museum;{'northeast': {'lat': -15.8551071697085, 'lng': -48.0431663697085}, 'southwest': {'lat': -15.8578051302915, 'lng': -48.04586433029149}}
ChIJ42n8_LctWpMRTdJLyljhY8w;Brasília/DF;Jardim Japonês Kasato Maru – Brasília-DF;Riacho Fundo I Qn 7 - Núcleo Bandeirante, Brasília;True;OPERATIONAL;-15.8788294;-48.0210204;"[""segunda-feira: Atendimento 24 horas"", ""terça-feira: Atendimento 24 horas"", ""quarta-feira: Atendimento 24 horas"", ""quinta-feira: Atendimento 24 horas"", ""sexta-feira: Atendimento 24 horas"", ""sábado: Atendimento 24 horas"", ""domingo: Atendimento 24 horas""]";"[""museum"", ""point_of_interest"", ""establishment""]";museum;{'northeast': {'lat': -15.87753291970849, 'lng': -48.0196489197085}, 'southwest': {'lat': -15.8802308802915, 'lng': -48.0223468802915}}
ChIJ37yZdEIvWpMRUZNEpU3ar7A;Brasília/DF;Morro do Escadão;3ª Avenida Comércio Comércio Ofício Ofício 1124 - Núcleo Bandeirante, Brasília;False;OPERATIONAL;-15.8724667;-47.9715672;"[""Não disponível""]";"[""museum"", ""point_of_interest"", ""establishment""]";museum;{'northeast': {'lat': -15.8711061697085, 'lng': -47.97019476970851}, 'southwest': {'lat': -15.8738041302915, 'lng': -47.97289273029151}}
ChIJCziXs7MvWpMR25xweDvjJco;Brasília/DF;Educativo Museu Vivo da Memória Candanga;EPIA, Setor JK Lote D, Brasília;False;OPERATIONAL;-15.8497684;-47.9549212;"[""Não disponível""]";"[""museum"", ""point_of_interest"", ""establishment""]";museum;{'northeast': {'lat': -15.8484250697085, 'lng': -47.9535337197085}, 'southwest': {'lat': -15.8511230302915, 'lng': -47.9562316802915}}
ChIJfVtupiYyWpMR9zgDX53oDMw;Brasília/DF;Museu Vivo da Memória Candanga;Setor JK Lote D, Núcleo Bandeirante, Brasília;True;OPERATIONAL;-15.8605377;-47.95743009999999;"[""segunda-feira: 09:00 – 17:00"", ""terça-feira: 09:00 – 17:00"", ""quarta-feira: 09:00 – 17:00"", ""quinta-feira: 09:00 – 17:00"", ""sexta-feira: 09:00 – 17:00"", ""sábado: 09:00 – 17:00"", ""domingo: Fechado""]";"[""museum"", ""tourist_attraction"", ""point_of_interest"", ""establishment""]";museum;{'northeast': {'lat': -15.8591979697085, 'lng': -47.9560858697085}, 'southwest': {'lat': -15.8618959302915, 'lng': -47.9587838302915}}
ChIJIaT89egyWpMRRBAf1CHZQxk;Brasília/DF;Biblioteca Braille Dorina Nowill;Setor B Norte CNB 1 - Taguatinga, Brasília;True;OPERATIONAL;-15.8319374;-48.0580254;"[""segunda-feira: 08:00 – 17:00"", ""terça-feira: 08:00 – 17:00"", ""quarta-feira: 08:00 – 17:00"", ""quinta-feira: 08:00 – 17:00"", ""sexta-feira: 08:00 – 17:00"", ""sábado: Fechado"", ""domingo: Fechado""]";"[""library"", ""museum"", ""point_of_interest"", ""establishment""]";museum;{'northeast': {'lat': -15.8304441197085, 'lng': -48.05672406970849}, 'southwest': {'lat': -15.8331420802915, 'lng': -48.05942203029149}}
ChIJc2_MLhAvWpMRz5Epg71-P8w;Brasília/DF;Metafísica;Quadra 2 Conjunto F casa 64 - Candangolândia, Brasília;False;OPERATIONAL;-15.8508198;-47.9505867;"[""Não disponível""]";"[""museum"", ""point_of_interest"", ""establishment""]";museum;{'northeast': {'lat': -15.8495433197085, 'lng': -47.9491980697085}, 'southwest': {'lat': -15.8522412802915, 'lng': -47.9518960302915}}
ChIJPRz-D5ctWpMRV9WI5IE9b9k;Brasília/DF;.;QN 122 Conjunto 15 6 lote 2 - Samambaia, Brasília;False;OPERATIONAL;-15.8658239;-48.0572039;"[""Não disponível""]";"[""museum"", ""point_of_interest"", ""establishment""]";museum;{'northeast': {'lat': -15.8644306697085, 'lng': -48.0558781197085}, 'southwest': {'lat': -15.8671286302915, 'lng': -48.05857608029149}}
ChIJY6taoz4vWpMRrcgtnz4Qp9g;Brasília/DF;Instituto Orgulho de Ser Nordestino;QRO Conjunto VC Chácara 48 - Affonsolandia, Brasília;True;OPERATIONAL;-15.85066339999999;-47.945552;"[""segunda-feira: 08:00 – 18:00"", ""terça-feira: 08:00 – 18:00"", ""quarta-feira: 08:00 – 18:00"", ""quinta-feira: 08:00 – 18:00"", ""sexta-feira: 08:00 – 18:00"", ""sábado: 08:00 – 18:00"", ""domingo: Fechado""]";"[""museum"", ""point_of_interest"", ""establishment""]";museum;{'northeast': {'lat': -15.84933441970849, 'lng': -47.9442404197085}, 'southwest': {'lat': -15.8520323802915, 'lng': -47.9469383802915}}
ChIJZ_7_T-AvWpMRvdYQOCTm1tI;Brasília/DF;Museu Histórico do Corpo de Bombeiros Militar do Distrito Federal;SAIS Area especial 4, lote 05 - Complexo ABMIL, Brasília;False;OPERATIONAL;-15.832952;-47.9397085;"[""segunda-feira: 13:00 – 19:00"", ""terça-feira: 13:00 – 19:00"", ""quarta-feira: 13:00 – 19:00"", ""quinta-feira: 13:00 – 19:00"", ""sexta-feira: 13:00 – 19:00"", ""sábado: Fechado"", ""domingo: Fechado""]";"[""museum"", ""point_of_interest"", ""establishment""]";museum;{'northeast': {'lat': -15.8315121197085, 'lng': -47.9384190197085}, 'southwest': {'lat': -15.8342100802915, 'lng': -47.9411169802915}}
ChIJDbtM35QvWpMRJFPrIG2JeA8;Brasília/DF;Museu de Ciências Naturais;Candangolândia, Brasília;True;OPERATIONAL;-15.8504386;-47.939082;"[""segunda-feira: Fechado"", ""terça-feira: 08:30 – 16:00"", ""quarta-feira: 08:30 – 16:00"", ""quinta-feira: 08:30 – 16:00"", ""sexta-feira: 08:30 – 16:00"", ""sábado: 08:30 – 16:00"", ""domingo: 08:30 – 16:00""]";"[""museum"", ""tourist_attraction"", ""point_of_interest"", ""establishment""]";museum;{'northeast': {'lat': -15.8491040697085, 'lng': -47.9378523197085}, 'southwest': {'lat': -15.8518020302915, 'lng': -47.9405502802915}}
ChIJ70E54DwzWpMR2NfzAlnDpkk;Brasília/DF;Praça da CNF;Setor F Norte Cnf 1, Setor F Norte - Taguatinga, Brasília;True;OPERATIONAL;-15.8143663;-48.0679549;"[""segunda-feira: Atendimento 24 horas"", ""terça-feira: Atendimento 24 horas"", ""quarta-feira: Atendimento 24 horas"", ""quinta-feira: Atendimento 24 horas"", ""sexta-feira: Atendimento 24 horas"", ""sábado: Atendimento 24 horas"", ""domingo: Atendimento 24 horas""]";"[""museum"", ""point_of_interest"", ""establishment""]";museum;{'northeast': {'lat': -15.8128825197085, 'lng': -48.0666503197085}, 'southwest': {'lat': -15.8155804802915, 'lng': -48.0693482802915}}
ChIJQ4OSYLQtWpMRW_iBUW2u-8M;Brasília/DF;Museu de Armas da Polícia Civil do Distrito Federal;Riacho Fundo II-1A Etapa - Recanto das Emas, Brasília;False;OPERATIONAL;-15.8846487;-48.057981;"[""Não disponível""]";"[""museum"", ""point_of_interest"", ""establishment""]";museum;{'northeast': {'lat': -15.8832582697085, 'lng': -48.0565579697085}, 'southwest': {'lat': -15.8859562302915, 'lng': -48.0592559302915}}
ChIJodRRNwAxWpMRDH7OQxg2kaU;Brasília/DF;Museu da Polícia Militar;Estrada Setor Policial Militar - SPO, Brasília;False;OPERATIONAL;-15.8276762;-47.9350377;"[""Não disponível""]";"[""museum"", ""point_of_interest"", ""establishment""]";museum;{'northeast': {'lat': -15.82636861970849, 'lng': -47.9337045697085}, 'southwest': {'lat': -15.8290665802915, 'lng': -47.9364025302915}}
ChIJOT-9AgAvWpMRHOD9W_rAurE;Brasília/DF;V12 Motores, Museu;Lago Sul, Brasília;False;OPERATIONAL;-15.8706784;-47.9357917;"[""Não disponível""]";"[""museum"", ""point_of_interest"", ""establishment""]";museum;{'northeast': {'lat': -15.86932881970849, 'lng': -47.9344409197085}, 'southwest': {'lat': -15.8720267802915, 'lng': -47.9371388802915}}
ChIJi5icXDcxWpMRwz3ssEju0Mk;Brasília/DF;Templo Ecumênico 2;SGAS Quadra 916 Sul Área Especial Cemitério - Asa Sul, Brasília;False;OPERATIONAL;-15.8219203;-47.930054;"[""Não disponível""]";"[""museum"", ""point_of_interest"", ""establishment""]";museum;{'northeast': {'lat': -15.8205622697085, 'lng': -47.9286271697085}, 'southwest': {'lat': -15.8232602302915, 'lng': -47.9313251302915}}
ChIJ65Q1EuPTW5MR7cSWT4wv8CI;Brasília/DF;Igreja Pentecostal Familia de Jesus no Brasil;Qs 105 Conjunto 02, 03 - Samambaia, Brasília;False;OPERATIONAL;-15.8758383;-48.0809532;"[""segunda-feira: 19:20 – 21:40"", ""terça-feira: Fechado"", ""quarta-feira: Fechado"", ""quinta-feira: 19:20 – 21:40"", ""sexta-feira: 19:20 – 21:40"", ""sábado: Fechado"", ""domingo: 19:00 – 21:40""]";"[""museum"", ""point_of_interest"", ""establishment""]";museum;{'northeast': {'lat': -15.8745409697085, 'lng': -48.07958446970851}, 'southwest': {'lat': -15.8772389302915, 'lng': -48.08228243029151}}
