id;city_state;name;address;open_now;business_status;latitude;longitude;weekday_text;types;search_type;viewport
ChIJaag-WMBJxwcRW-b6NNeOFrQ;Fortaleza/CE;Rua Adriano Martins, 110;Brazil;False;OPERATIONAL;-3.71561;-38.54546999999999;"[""Não disponível""]";"[""bus_station"", ""transit_station"", ""point_of_interest"", ""establishment""]";bus_station;{'northeast': {'lat': -3.714265669708498, 'lng': -38.54414386970849}, 'southwest': {'lat': -3.716963630291502, 'lng': -38.54684183029149}}
ChIJ82913sFJxwcRZfztPtJMN-E;Fortaleza/CE;Avenida Presidente Castelo Branco, 2223;Brazil;False;OPERATIONAL;-3.71404;-38.54771;"[""Não disponível""]";"[""bus_station"", ""transit_station"", ""point_of_interest"", ""establishment""]";bus_station;{'northeast': {'lat': -3.712660269708497, 'lng': -38.5463489197085}, 'southwest': {'lat': -3.715358230291502, 'lng': -38.5490468802915}}
ChIJBUqdAbtJxwcRzxduxU4q1mQ;Fortaleza/CE;Rua Oto De Alencar, 171;Brazil;False;OPERATIONAL;-3.723708;-38.540321;"[""Não disponível""]";"[""bus_station"", ""transit_station"", ""point_of_interest"", ""establishment""]";bus_station;{'northeast': {'lat': -3.722358069708498, 'lng': -38.5389750197085}, 'southwest': {'lat': -3.725056030291503, 'lng': -38.54167298029149}}
ChIJc-U1Rr1JxwcRpDRosSk-_ws;Fortaleza/CE;Avenida Sargento Hermínio Sampaio, 668;Brazil;False;OPERATIONAL;-3.72461;-38.54690999999999;"[""Não disponível""]";"[""bus_station"", ""transit_station"", ""point_of_interest"", ""establishment""]";bus_station;{'northeast': {'lat': -3.723244369708498, 'lng': -38.5455593697085}, 'southwest': {'lat': -3.725942330291502, 'lng': -38.5482573302915}}
ChIJzSDeRb1JxwcRzYMqEmTjGwU;Fortaleza/CE;Avenida Sargento Hermínio Sampaio, 715;Brazil;False;OPERATIONAL;-3.7246;-38.54707;"[""Não disponível""]";"[""bus_station"", ""transit_station"", ""point_of_interest"", ""establishment""]";bus_station;{'northeast': {'lat': -3.723234069708497, 'lng': -38.5457199197085}, 'southwest': {'lat': -3.725932030291502, 'lng': -38.5484178802915}}
ChIJyUKd8pdJxwcR62_ncKmcNTA;Fortaleza/CE;Avenida Sargento Hermínio Sampaio, 947;Brazil;False;OPERATIONAL;-3.72455;-38.54923;"[""Não disponível""]";"[""bus_station"", ""transit_station"", ""point_of_interest"", ""establishment""]";bus_station;{'northeast': {'lat': -3.723203919708497, 'lng': -38.5478808197085}, 'southwest': {'lat': -3.725901880291502, 'lng': -38.5505787802915}}
ChIJa7hKbLZJxwcRgoh4yj8NpDo;Fortaleza/CE;Avenida Presidente Castelo Branco, 718;Brazil;False;OPERATIONAL;-3.71897;-38.53311;"[""Não disponível""]";"[""bus_station"", ""transit_station"", ""point_of_interest"", ""establishment""]";bus_station;{'northeast': {'lat': -3.717616869708498, 'lng': -38.5317594697085}, 'southwest': {'lat': -3.720314830291502, 'lng': -38.5344574302915}}
ChIJb-TQ8aVJxwcRxX76Mu0r4iQ;Fortaleza/CE;Avenida Duque De Caxias, 1584;Brazil;False;OPERATIONAL;-3.72899;-38.53821000000001;"[""Não disponível""]";"[""bus_station"", ""transit_station"", ""point_of_interest"", ""establishment""]";bus_station;{'northeast': {'lat': -3.727668569708498, 'lng': -38.5368704197085}, 'southwest': {'lat': -3.730366530291502, 'lng': -38.5395683802915}}
ChIJA-AAKaFJxwcRNrbW9BZPVgE;Fortaleza/CE;Avenida Bezerra De Menezes, 384;Brazil;False;OPERATIONAL;-3.73132;-38.543265;"[""Não disponível""]";"[""bus_station"", ""transit_station"", ""point_of_interest"", ""establishment""]";bus_station;{'northeast': {'lat': -3.729952169708497, 'lng': -38.5419201697085}, 'southwest': {'lat': -3.732650130291502, 'lng': -38.5446181302915}}
ChIJze0xUahJxwcRaiIwFip8r-Y;Fortaleza/CE;Rua Meton De Alencar, 1284;Brazil;False;OPERATIONAL;-3.73214;-38.53535999999999;"[""Não disponível""]";"[""bus_station"", ""transit_station"", ""point_of_interest"", ""establishment""]";bus_station;{'northeast': {'lat': -3.730820969708497, 'lng': -38.53402111970849}, 'southwest': {'lat': -3.733518930291502, 'lng': -38.53671908029149}}
ChIJx-k2OktIxwcRkywws-TTQE8;Fortaleza/CE;Rua Adolfo Caminha;Brazil;False;OPERATIONAL;-3.72086;-38.52624;"[""Não disponível""]";"[""bus_station"", ""transit_station"", ""point_of_interest"", ""establishment""]";bus_station;{'northeast': {'lat': -3.719477219708498, 'lng': -38.5248868697085}, 'southwest': {'lat': -3.722175180291502, 'lng': -38.5275848302915}}
ChIJpc9fCk1IxwcRMdQp8t0mtVE;Fortaleza/CE;Rua Sobral, 72;Brazil;False;OPERATIONAL;-3.72519;-38.52449;"[""Não disponível""]";"[""bus_station"", ""transit_station"", ""point_of_interest"", ""establishment""]";bus_station;{'northeast': {'lat': -3.723829019708498, 'lng': -38.5231391197085}, 'southwest': {'lat': -3.726526980291503, 'lng': -38.5258370802915}}
ChIJ2XmK0w5JxwcRhnu2ykm0QlQ;Fortaleza/CE;Rua Juvenal Galeno, 702;Brazil;False;OPERATIONAL;-3.73787;-38.54049;"[""Não disponível""]";"[""bus_station"", ""transit_station"", ""point_of_interest"", ""establishment""]";bus_station;{'northeast': {'lat': -3.736541569708498, 'lng': -38.5391589697085}, 'southwest': {'lat': -3.739239530291502, 'lng': -38.5418569302915}}
ChIJ2zBb4QVJxwcRD2iq6RMcqRI;Fortaleza/CE;Avenida Da Universidade, 2385;Brazil;False;OPERATIONAL;-3.73811;-38.53651;"[""Não disponível""]";"[""bus_station"", ""transit_station"", ""point_of_interest"", ""establishment""]";bus_station;{'northeast': {'lat': -3.736755369708497, 'lng': -38.5351673197085}, 'southwest': {'lat': -3.739453330291501, 'lng': -38.5378652802915}}
ChIJUxqI3ftJxwcR-Iw-KPiXD4s;Fortaleza/CE;Rua Santa Elisa, 1093;Brazil;False;OPERATIONAL;-3.70506;-38.56334;"[""Não disponível""]";"[""bus_station"", ""transit_station"", ""point_of_interest"", ""establishment""]";bus_station;{'northeast': {'lat': -3.703688319708497, 'lng': -38.5619831697085}, 'southwest': {'lat': -3.706386280291501, 'lng': -38.5646811302915}}
ChIJ2dcwRYZJxwcRh092kEBUtE8;Fortaleza/CE;Avenida Olavo Bilac, 667;Brazil;False;OPERATIONAL;-3.72575;-38.56563999999999;"[""Não disponível""]";"[""bus_station"", ""transit_station"", ""point_of_interest"", ""establishment""]";bus_station;{'northeast': {'lat': -3.724415219708497, 'lng': -38.56426766970851}, 'southwest': {'lat': -3.727113180291502, 'lng': -38.56696563029151}}
ChIJXxc2e3JJxwcRIfk-kY2A5aM;Fortaleza/CE;Rua Francisca Clotilde, 255;Brazil;False;OPERATIONAL;-3.740713;-38.55107799999999;"[""Não disponível""]";"[""bus_station"", ""transit_station"", ""point_of_interest"", ""establishment""]";bus_station;{'northeast': {'lat': -3.739367069708497, 'lng': -38.54972541970849}, 'southwest': {'lat': -3.742065030291502, 'lng': -38.55242338029149}}
ChIJZZVjNvlJxwcRvBLN_3xf9cM;Fortaleza/CE;Rua Santa Elisa, 1321;Brazil;False;OPERATIONAL;-3.70424;-38.56525000000001;"[""Não disponível""]";"[""bus_station"", ""transit_station"", ""point_of_interest"", ""establishment""]";bus_station;{'northeast': {'lat': -3.702869419708497, 'lng': -38.5638944197085}, 'southwest': {'lat': -3.705567380291502, 'lng': -38.5665923802915}}
ChIJgzIyov9IxwcRO-vASDuZRE0;Fortaleza/CE;Rua Meton De Alencar, 77;Brazil;False;OPERATIONAL;-3.735569999999999;-38.52478000000001;"[""Não disponível""]";"[""bus_station"", ""transit_station"", ""point_of_interest"", ""establishment""]";bus_station;{'northeast': {'lat': -3.734252119708497, 'lng': -38.5234383697085}, 'southwest': {'lat': -3.736950080291501, 'lng': -38.5261363302915}}
ChIJVTj8N4dJxwcRjpsIPrE3RYo;Fortaleza/CE;Avenida Sargento Hermínio, S/N;Brazil;False;OPERATIONAL;-3.72767;-38.56772;"[""Não disponível""]";"[""bus_station"", ""transit_station"", ""point_of_interest"", ""establishment""]";bus_station;{'northeast': {'lat': -3.726301869708498, 'lng': -38.5663746197085}, 'southwest': {'lat': -3.728999830291503, 'lng': -38.5690725802915}}
