id;city_state;name;address;open_now;business_status;latitude;longitude;weekday_text;types;search_type;viewport
ChIJvVOgSwDhYY0RgAm3ZBR37Ew;Macapá/AP;Novo Hospital de Emergência - Novo HE;Avenida Padre Júlio Maria Lombaerd - Central, Macapá;False;OPERATIONAL;0.0347752;-51.06570740000001;"[""Não disponível""]";"[""hospital"", ""health"", ""point_of_interest"", ""establishment""]";hospital;{'northeast': {'lat': 0.03635778029150203, 'lng': -51.0643417697085}, 'southwest': {'lat': 0.03365981970849797, 'lng': -51.0670397302915}}
ChIJRWzdWgDhYY0RPrtAAxhHJf0;Macapá/AP;Spa Vivace;Avenida Mendonça Furtado, 1925 - Central, Macapá;False;OPERATIONAL;0.03775499999999999;-51.06901370000001;"[""Não disponível""]";"[""hospital"", ""health"", ""point_of_interest"", ""establishment""]";hospital;{'northeast': {'lat': 0.03924443029150203, 'lng': -51.0676550697085}, 'southwest': {'lat': 0.03654646970849797, 'lng': -51.0703530302915}}
ChIJ6cOLcRrhYY0RwoLQQwQk3RQ;Macapá/AP;Pronto Socorro Osvaldo Cruz;Rua Hamilton Silva, 1648 - Trem, Macapá;True;OPERATIONAL;0.0346462;-51.0647517;"[""segunda-feira: Atendimento 24 horas"", ""terça-feira: Atendimento 24 horas"", ""quarta-feira: Atendimento 24 horas"", ""quinta-feira: Atendimento 24 horas"", ""sexta-feira: Atendimento 24 horas"", ""sábado: Atendimento 24 horas"", ""domingo: Atendimento 24 horas""]";"[""hospital"", ""health"", ""point_of_interest"", ""establishment""]";hospital;{'northeast': {'lat': 0.03588308029150204, 'lng': -51.0632091697085}, 'southwest': {'lat': 0.03318511970849797, 'lng': -51.0659071302915}}
ChIJwbcGaiXhYY0RRk295igUT1k;Macapá/AP;Hospital de Emergência Oswaldo Cruz;Rua Hamilton Silva, 139 - Central, Macapá;False;OPERATIONAL;0.0346772;-51.06471309999999;"[""Não disponível""]";"[""hospital"", ""health"", ""point_of_interest"", ""establishment""]";hospital;{'northeast': {'lat': 0.03604203029150203, 'lng': -51.0635156197085}, 'southwest': {'lat': 0.03334406970849797, 'lng': -51.0662135802915}}
ChIJpUfk5wjhYY0RaoERxLqxfBE;Macapá/AP;ESTETICA ORAL IMPLANT DR JOSELITO S;Avenida Henrique Galucio - Central, Macapá;True;OPERATIONAL;0.0317222;-51.0653347;"[""segunda-feira: 08:00 – 11:00, 14:00 – 18:00"", ""terça-feira: 08:00 – 11:00, 14:00 – 18:00"", ""quarta-feira: 08:00 – 11:00, 14:00 – 18:00"", ""quinta-feira: 08:00 – 11:00, 14:00 – 18:00"", ""sexta-feira: 08:00 – 11:00, 14:00 – 18:00"", ""sábado: 08:00 – 10:00"", ""domingo: Fechado""]";"[""hospital"", ""health"", ""point_of_interest"", ""establishment""]";hospital;{'northeast': {'lat': 0.03302188029150203, 'lng': -51.0639883697085}, 'southwest': {'lat': 0.03032391970849796, 'lng': -51.0666863302915}}
ChIJETw6JqfhYY0Rzp5CBkGBR0E;Macapá/AP;Unidade Básica de Saúde - Projeto Rnis;Rua Professor Tostes, 2200 - Central, Macapá;False;OPERATIONAL;0.0301781;-51.0689573;"[""Não disponível""]";"[""hospital"", ""health"", ""point_of_interest"", ""establishment""]";hospital;{'northeast': {'lat': 0.03152273029150203, 'lng': -51.06755246970851}, 'southwest': {'lat': 0.02882476970849797, 'lng': -51.0702504302915}}
ChIJD0XzOMjhYY0RFvm5l2jRmLI;Macapá/AP;Evolution;Avenida Duque de Caxias, 1143 - Central, Macapá;True;OPERATIONAL;0.0395038;-51.0665537;"[""segunda-feira: 08:00 – 19:00"", ""terça-feira: 08:00 – 19:00"", ""quarta-feira: 08:00 – 19:00"", ""quinta-feira: 08:00 – 19:00"", ""sexta-feira: 08:00 – 20:00"", ""sábado: Fechado"", ""domingo: Fechado""]";"[""hospital"", ""health"", ""point_of_interest"", ""establishment""]";hospital;{'northeast': {'lat': 0.04092293029150204, 'lng': -51.06519976970851}, 'southwest': {'lat': 0.03822496970849797, 'lng': -51.06789773029151}}
ChIJlTdm7JHhYY0R5SVoQqmGyEk;Macapá/AP;AmorSaúde Macapá;Avenida Antônio Coelho de Carvalho, 1399 - Santa Rita, Macapá;True;OPERATIONAL;0.0320076;-51.0638953;"[""segunda-feira: 07:00 – 18:00"", ""terça-feira: 07:00 – 18:00"", ""quarta-feira: 07:00 – 18:00"", ""quinta-feira: 07:00 – 18:00"", ""sexta-feira: 07:00 – 18:00"", ""sábado: 08:00 – 12:00"", ""domingo: Fechado""]";"[""hospital"", ""health"", ""point_of_interest"", ""establishment""]";hospital;{'northeast': {'lat': 0.03349628029150203, 'lng': -51.0625379197085}, 'southwest': {'lat': 0.03079831970849797, 'lng': -51.0652358802915}}
ChIJVw4IScXhYY0R10roX7_Siiw;Macapá/AP;Hospital De Olhos Do Amapá;Avenida Antônio Coelho de Carvalho, 2604 - Central, Macapá;False;OPERATIONAL;0.0333081;-51.0743883;"[""Não disponível""]";"[""hospital"", ""health"", ""point_of_interest"", ""establishment""]";hospital;{'northeast': {'lat': 0.03452678029150203, 'lng': -51.0730490197085}, 'southwest': {'lat': 0.03182881970849797, 'lng': -51.0757469802915}}
ChIJwQFo0BLhYY0RpbnPqhQTphM;Macapá/AP;Vaccini - Clínica de Vacinação | Macapá;Avenida Almirante Barroso, 1890 - Santa Rita, Macapá;True;OPERATIONAL;0.03774369999999999;-51.0740715;"[""segunda-feira: 08:00 – 18:00"", ""terça-feira: 08:00 – 18:00"", ""quarta-feira: 08:00 – 18:00"", ""quinta-feira: 08:00 – 18:00"", ""sexta-feira: 08:00 – 18:00"", ""sábado: 18:00 – 00:00"", ""domingo: 00:00 – 12:00""]";"[""hospital"", ""health"", ""point_of_interest"", ""establishment""]";hospital;{'northeast': {'lat': 0.03901743029150203, 'lng': -51.07272761970849}, 'southwest': {'lat': 0.03631946970849797, 'lng': -51.07542558029149}}
ChIJp3tM2RrhYY0RGCeB6GhpUQc;Macapá/AP;Cempro Centro Profissional De Referencia Odontologica;Rua Leopoldo Machado, 1690 - Beirol, Macapá;False;OPERATIONAL;0.03708260000000001;-51.0622204;"[""Não disponível""]";"[""hospital"", ""health"", ""point_of_interest"", ""establishment""]";hospital;{'northeast': {'lat': 0.03842828029150204, 'lng': -51.06082386970849}, 'southwest': {'lat': 0.03573031970849798, 'lng': -51.06352183029149}}
ChIJ94DseQPhYY0RrC32giGFpzY;Macapá/AP;Ortomed;Rua Doutor Marcelo Cândia, 884 - Santa Rita, Macapá;False;OPERATIONAL;0.0372606;-51.0747334;"[""Não disponível""]";"[""hospital"", ""health"", ""point_of_interest"", ""establishment""]";hospital;{'northeast': {'lat': 0.03860363029150203, 'lng': -51.0732996197085}, 'southwest': {'lat': 0.03590566970849797, 'lng': -51.0759975802915}}
ChIJ92XI0xLhYY0Rzvxq9N2JJss;Macapá/AP;Plano de Saúde São Camilo - Macapá;Rua Doutor Marcelo Cândia, 742 - Santa Rita, Macapá;True;OPERATIONAL;0.03848189999999999;-51.0745645;"[""segunda-feira: 07:00 – 18:00"", ""terça-feira: 07:00 – 18:00"", ""quarta-feira: 07:00 – 18:00"", ""quinta-feira: 07:00 – 18:00"", ""sexta-feira: 07:00 – 18:00"", ""sábado: Fechado"", ""domingo: Fechado""]";"[""hospital"", ""health"", ""point_of_interest"", ""establishment""]";hospital;{'northeast': {'lat': 0.03982723029150203, 'lng': -51.0731658197085}, 'southwest': {'lat': 0.03712926970849797, 'lng': -51.0758637802915}}
ChIJhfYdZQDhYY0RcWj9s1cDaH4;Macapá/AP;Instituto HR Andrade;Avenida Fab, 2415 - Santa Rita, Macapá;True;OPERATIONAL;0.0414309;-51.0714813;"[""segunda-feira: 08:00 – 18:00"", ""terça-feira: 08:00 – 18:00"", ""quarta-feira: 08:00 – 18:00"", ""quinta-feira: 08:00 – 18:00"", ""sexta-feira: 08:00 – 18:00"", ""sábado: Fechado"", ""domingo: Fechado""]";"[""hospital"", ""health"", ""point_of_interest"", ""establishment""]";hospital;{'northeast': {'lat': 0.04288373029150203, 'lng': -51.0701253697085}, 'southwest': {'lat': 0.04018576970849796, 'lng': -51.0728233302915}}
ChIJOyowCQDhYY0RTvKj8CXR8dQ;Macapá/AP;Ambulatório de Urologia;Santa Rita, Macapá;True;OPERATIONAL;0.0377883;-51.07513840000001;"[""segunda-feira: 07:00 – 18:00"", ""terça-feira: 07:00 – 18:00"", ""quarta-feira: 07:00 – 18:00"", ""quinta-feira: 07:00 – 18:00"", ""sexta-feira: 07:00 – 18:00"", ""sábado: Fechado"", ""domingo: Fechado""]";"[""hospital"", ""health"", ""point_of_interest"", ""establishment""]";hospital;{'northeast': {'lat': 0.03907708029150204, 'lng': -51.0737939197085}, 'southwest': {'lat': 0.03637911970849798, 'lng': -51.0764918802915}}
ChIJ7f7bfQDhYY0RXDsJuVdAP38;Macapá/AP;Laboratório Paulo Albuquerque;Avenida Almirante Barroso, 2054 - Central, Macapá;False;OPERATIONAL;0.0377893;-51.07515040000001;"[""Não disponível""]";"[""hospital"", ""health"", ""point_of_interest"", ""establishment""]";hospital;{'northeast': {'lat': 0.03907798029150203, 'lng': -51.07380591970851}, 'southwest': {'lat': 0.03638001970849797, 'lng': -51.0765038802915}}
ChIJ49Gz0hLhYY0RNEeO2I2Qa3w;Macapá/AP;Urologia;Macapá;False;OPERATIONAL;0.038676;-51.0747402;"[""Não disponível""]";"[""hospital"", ""health"", ""point_of_interest"", ""establishment""]";hospital;{'northeast': {'lat': 0.03993308029150203, 'lng': -51.0734648697085}, 'southwest': {'lat': 0.03723511970849797, 'lng': -51.0761628302915}}
ChIJod7JLW3hYY0RPjjxQ_PVhRk;Macapá/AP;Dermatologia;Macapá;False;OPERATIONAL;0.03871889999999999;-51.07490790000001;"[""Não disponível""]";"[""hospital"", ""health"", ""point_of_interest"", ""establishment""]";hospital;{'northeast': {'lat': 0.03998723029150204, 'lng': -51.0735926697085}, 'southwest': {'lat': 0.03728926970849797, 'lng': -51.0762906302915}}
ChIJA0JOLG3hYY0RciRAjN0Rw6g;Macapá/AP;Oftalmologia;Macapá;False;OPERATIONAL;0.03871889999999999;-51.07490790000001;"[""Não disponível""]";"[""hospital"", ""health"", ""point_of_interest"", ""establishment""]";hospital;{'northeast': {'lat': 0.03998723029150204, 'lng': -51.0735926697085}, 'southwest': {'lat': 0.03728926970849797, 'lng': -51.0762906302915}}
ChIJc65FLW3hYY0R4K3DW60QD-8;Macapá/AP;Reumatologia;Macapá;False;OPERATIONAL;0.03871889999999999;-51.07490790000001;"[""Não disponível""]";"[""hospital"", ""health"", ""point_of_interest"", ""establishment""]";hospital;{'northeast': {'lat': 0.03998723029150204, 'lng': -51.0735926697085}, 'southwest': {'lat': 0.03728926970849797, 'lng': -51.0762906302915}}
