id;city_state;name;address;open_now;business_status;latitude;longitude;weekday_text;types;search_type;viewport
ChIJeeD6bOJfpJIRhfDTwWfROS8;Ananindeua/PA;DictoLoveMTB;Estrada Santana do Aurá, SN, Residencial Torres do Aurá, 14 - AP 204 - Águas Brancas, Ananindeua;False;OPERATIONAL;-1.3669083;-48.3708021;"[""Não disponível""]";"[""museum"", ""point_of_interest"", ""establishment""]";museum;{'northeast': {'lat': -1.365492919708498, 'lng': -48.3694644697085}, 'southwest': {'lat': -1.368190880291502, 'lng': -48.3721624302915}}
ChIJ76GUhBFgpJIRS0DbpCByIu4;Ananindeua/PA;Museu Seringal;Travessa WE-34, 774-1016 - Cidade Nova, Ananindeua;False;OPERATIONAL;-1.3596596;-48.4108601;"[""segunda-feira: Fechado"", ""terça-feira: 08:00 – 12:00, 15:00 – 19:00"", ""quarta-feira: 08:00 – 12:00, 15:00 – 19:00"", ""quinta-feira: 08:00 – 12:00, 15:00 – 19:00"", ""sexta-feira: 08:00 – 12:00, 15:00 – 19:00"", ""sábado: 08:00 – 12:00, 15:00 – 19:00"", ""domingo: 08:00 – 12:00, 15:00 – 19:00""]";"[""museum"", ""tourist_attraction"", ""point_of_interest"", ""establishment""]";museum;{'northeast': {'lat': -1.358425969708498, 'lng': -48.4095269697085}, 'southwest': {'lat': -1.361123930291502, 'lng': -48.4122249302915}}
ChIJf1CYQKqLpJIR5bc09SmUlX8;Ananindeua/PA;Rafaella Ainette;Conjunto cidade nova Ix - Travessa We Cinco -B, 41 - Coqueiro, Ananindeua;False;OPERATIONAL;-1.3739626;-48.4107321;"[""Não disponível""]";"[""museum"", ""point_of_interest"", ""establishment""]";museum;{'northeast': {'lat': -1.372553569708498, 'lng': -48.4093834197085}, 'southwest': {'lat': -1.375251530291502, 'lng': -48.4120813802915}}
ChIJaWDxUc31pJIR2_cCify7Z7o;Ananindeua/PA;Confluência Museológica Consultoria;Travessa Coletora Leste (Júlia Sefer), Conj - Águas Lindas, Ananindeua;True;OPERATIONAL;-1.3929268;-48.379302;"[""segunda-feira: 08:00 – 18:00"", ""terça-feira: 08:00 – 18:00"", ""quarta-feira: 08:00 – 18:00"", ""quinta-feira: 08:00 – 18:00"", ""sexta-feira: 08:00 – 18:00"", ""sábado: 08:00 – 12:00"", ""domingo: Fechado""]";"[""museum"", ""point_of_interest"", ""establishment""]";museum;{'northeast': {'lat': -1.391582669708498, 'lng': -48.37798411970849}, 'southwest': {'lat': -1.394280630291502, 'lng': -48.38068208029149}}
ChIJTwM7kUT1pJIRoDIg7OSXXLk;Ananindeua/PA;Família Gonçalves;Rua Emíliano Zapata, 33 - Águas Lindas, Ananindeua;False;OPERATIONAL;-1.4023474;-48.3910531;"[""Não disponível""]";"[""museum"", ""point_of_interest"", ""establishment""]";museum;{'northeast': {'lat': -1.401060569708498, 'lng': -48.38970086970849}, 'southwest': {'lat': -1.403758530291502, 'lng': -48.39239883029149}}
ChIJJ-6fR5uLpJIRkLHliMHnjJU;Ananindeua/PA;Paquetá Produtos;Rua Chico Mendes - Mangueirão, Belém;False;CLOSED_TEMPORARILY;-1.3825476;-48.43116149999999;"[""Não disponível""]";"[""museum"", ""point_of_interest"", ""establishment""]";museum;{'northeast': {'lat': -1.381204569708498, 'lng': -48.4298059197085}, 'southwest': {'lat': -1.383902530291502, 'lng': -48.4325038802915}}
ChIJwXSBg4qKpJIRUcUv6-HRbjg;Ananindeua/PA;Centro de Ciências e Planetário do Pará;Rodovia Augusto Montenegro, s/n - Km 03 - Mangueirão, Belém;False;OPERATIONAL;-1.3839805;-48.4382895;"[""segunda-feira: Fechado"", ""terça-feira: 08:30 – 18:00"", ""quarta-feira: 14:30 – 18:00"", ""quinta-feira: 08:30 – 18:00"", ""sexta-feira: 08:30 – 18:00"", ""sábado: 08:30 – 12:00"", ""domingo: Fechado""]";"[""museum"", ""point_of_interest"", ""establishment""]";museum;{'northeast': {'lat': -1.382523919708498, 'lng': -48.4367302197085}, 'southwest': {'lat': -1.385221880291502, 'lng': -48.43942818029149}}
ChIJIfSNOwBhpJIRplyILx7EhbY;Ananindeua/PA;Of cefa;Rua Coréia do Sul - Parque Verde, Belém;False;OPERATIONAL;-1.365947;-48.45406089999999;"[""Não disponível""]";"[""museum"", ""point_of_interest"", ""establishment""]";museum;{'northeast': {'lat': -1.364599319708498, 'lng': -48.4527266697085}, 'southwest': {'lat': -1.367297280291502, 'lng': -48.4554246302915}}
ChIJWZN6weKLpJIRdjP01zMcQms;Ananindeua/PA;VLT Transportes fictício.;Avenida Pedro Álvares Cabral, 94 - Marambaia, Belém;False;OPERATIONAL;-1.4075695;-48.44289500000001;"[""Não disponível""]";"[""museum"", ""point_of_interest"", ""establishment""]";museum;{'northeast': {'lat': -1.406247919708498, 'lng': -48.4415396197085}, 'southwest': {'lat': -1.408945880291502, 'lng': -48.44423758029149}}
ChIJvVEJUoSLpJIRk5xu98fY4og;Ananindeua/PA;Sede Administrativa Parque Utinga PA;641, Rua do Utinga, 617 - Curió-Utinga, Belém;False;CLOSED_TEMPORARILY;-1.424971;-48.4353172;"[""Não disponível""]";"[""museum"", ""point_of_interest"", ""establishment""]";museum;{'northeast': {'lat': -1.423830469708498, 'lng': -48.4339726697085}, 'southwest': {'lat': -1.426528430291502, 'lng': -48.43667063029149}}
ChIJxffRXDSKpJIR77ODwxckOko;Ananindeua/PA;Parque Ecológico Municipal “Gunnar Vingren”;Avenida Paragominas, 317-371 - Marambaia, Belém;False;CLOSED_TEMPORARILY;-1.3982838;-48.4622023;"[""Não disponível""]";"[""museum"", ""tourist_attraction"", ""point_of_interest"", ""establishment""]";museum;{'northeast': {'lat': -1.396937669708498, 'lng': -48.4607907697085}, 'southwest': {'lat': -1.399635630291502, 'lng': -48.4634887302915}}
ChIJc-dQGwCNpJIRdVMP-b_zccg;Ananindeua/PA;Herbário MG;Universitário, Belém;False;OPERATIONAL;-1.4512989;-48.44367769999999;"[""Não disponível""]";"[""museum"", ""point_of_interest"", ""establishment""]";museum;{'northeast': {'lat': -1.449946419708498, 'lng': -48.4424154697085}, 'southwest': {'lat': -1.452644380291502, 'lng': -48.44511343029149}}
ChIJpc_zAQCNpJIRYqVmCV7e8Z4;Ananindeua/PA;LAMC-MPEG - Laboratório de Microtomograﬁa Computadorizada;Avenida Perimetral, 1901 - Terra Firme, Belém;True;OPERATIONAL;-1.4511033;-48.44503659999999;"[""segunda-feira: 09:00 – 16:00"", ""terça-feira: 09:00 – 16:00"", ""quarta-feira: 09:00 – 16:00"", ""quinta-feira: 09:00 – 16:00"", ""sexta-feira: 09:00 – 16:00"", ""sábado: Fechado"", ""domingo: Fechado""]";"[""museum"", ""point_of_interest"", ""establishment""]";museum;{'northeast': {'lat': -1.449679669708498, 'lng': -48.4436859197085}, 'southwest': {'lat': -1.452377630291502, 'lng': -48.44638388029149}}
ChIJz-jMGgCNpJIRIdC2Idqum68;Ananindeua/PA;Entomologia;Belém;True;OPERATIONAL;-1.4515233;-48.44528109999999;"[""segunda-feira: 07:00 – 17:00"", ""terça-feira: 07:00 – 17:00"", ""quarta-feira: 07:00 – 17:00"", ""quinta-feira: 07:00 – 17:00"", ""sexta-feira: 07:00 – 17:00"", ""sábado: Fechado"", ""domingo: Fechado""]";"[""museum"", ""point_of_interest"", ""establishment""]";museum;{'northeast': {'lat': -1.450172469708498, 'lng': -48.4440072197085}, 'southwest': {'lat': -1.452870430291502, 'lng': -48.4467051802915}}
ChIJvcx2YRlkpJIRiGRZ-s7Vj2c;Ananindeua/PA;Coarte- Cooperativa dos Artesãos;Rua Padre Júlio Maria, 937-995 - Cruzeiro, Belém;True;OPERATIONAL;-1.3024083;-48.485214;"[""segunda-feira: 08:00 – 18:00"", ""terça-feira: 08:00 – 18:00"", ""quarta-feira: 08:00 – 18:00"", ""quinta-feira: 08:00 – 18:00"", ""sexta-feira: 08:00 – 18:00"", ""sábado: Fechado"", ""domingo: Fechado""]";"[""museum"", ""point_of_interest"", ""establishment""]";museum;{'northeast': {'lat': -1.301064119708498, 'lng': -48.48396761970849}, 'southwest': {'lat': -1.303762080291502, 'lng': -48.48666558029149}}
ChIJ-0Spl9dnpJIRHOoSTkTLbEM;Ananindeua/PA;Ecomuseu da Amazônia/FUNBOSQUE;Rua Manoel Barata, 1974 - São João do Outeiro, Belém;True;OPERATIONAL;-1.2619613;-48.4664406;"[""segunda-feira: 09:00 – 16:00"", ""terça-feira: 09:00 – 16:00"", ""quarta-feira: 09:00 – 16:00"", ""quinta-feira: 09:00 – 16:00"", ""sexta-feira: 09:00 – 16:00"", ""sábado: Fechado"", ""domingo: Fechado""]";"[""museum"", ""point_of_interest"", ""establishment""]";museum;{'northeast': {'lat': -1.260552419708498, 'lng': -48.46503231970851}, 'southwest': {'lat': -1.263250380291502, 'lng': -48.46773028029151}}
ChIJ8TnBe8WJpJIROL04qyYw0GM;Ananindeua/PA;Eco Casa Vila da Barca;Beira mar da - Passagem Praiana - Porto solamar, Belém;True;OPERATIONAL;-1.4287627;-48.4924884;"[""segunda-feira: 08:00 – 17:00"", ""terça-feira: 08:00 – 17:00"", ""quarta-feira: 08:00 – 17:00"", ""quinta-feira: 08:00 – 17:00"", ""sexta-feira: 08:00 – 17:00"", ""sábado: Fechado"", ""domingo: Fechado""]";"[""museum"", ""point_of_interest"", ""establishment""]";museum;{'northeast': {'lat': -1.427304669708498, 'lng': -48.4911022197085}, 'southwest': {'lat': -1.430002630291502, 'lng': -48.49380018029149}}
ChIJ7U1XOACNpJIRfIcwOK6wf7Y;Ananindeua/PA;HALL;Avenida Alcindo Cacela, 1160 - Nazaré, Belém;True;OPERATIONAL;-1.4470176;-48.4781341;"[""segunda-feira: 08:00 – 17:00"", ""terça-feira: 08:00 – 17:00"", ""quarta-feira: 08:00 – 17:00"", ""quinta-feira: 08:00 – 17:00"", ""sexta-feira: 08:00 – 17:00"", ""sábado: Fechado"", ""domingo: Fechado""]";"[""museum"", ""point_of_interest"", ""establishment""]";museum;{'northeast': {'lat': -1.445665769708498, 'lng': -48.4767495697085}, 'southwest': {'lat': -1.448363730291502, 'lng': -48.47944753029149}}
ChIJ3wpbfQCNpJIRUqZhkvYv8LA;Ananindeua/PA;Museu Goeldi;Rod. Br 316, 370 - Nazaré, Belém;False;OPERATIONAL;-1.4520119;-48.4765051;"[""Não disponível""]";"[""museum"", ""point_of_interest"", ""establishment""]";museum;{'northeast': {'lat': -1.450606969708498, 'lng': -48.47515931970851}, 'southwest': {'lat': -1.453304930291502, 'lng': -48.47785728029151}}
ChIJCVPyBQCNpJIRmDlU4xdFIFY;Ananindeua/PA;MPEG - Entrada de servidores;Travessa Nove de Janeiro, 1830 - São Brás, Belém;False;OPERATIONAL;-1.4532602;-48.47577659999999;"[""Não disponível""]";"[""museum"", ""point_of_interest"", ""establishment""]";museum;{'northeast': {'lat': -1.451909319708498, 'lng': -48.47437716970849}, 'southwest': {'lat': -1.454607280291502, 'lng': -48.47707513029149}}
