id;city_state;name;address;current_opening_hours;business_status;latitude;longitude;weekday_text;viewport
ChIJK0T-ryQ4J5URxis00JCmyEY;Florianópolis/SC;Rede Andrade Cecomtur Hotel;R. Arcipreste Paiva, 107 - Centro, Florianópolis;True;OPERATIONAL;-27.595844;-48.5493759;['Monday: Open 24 hours', 'Tuesday: Open 24 hours', 'Wednesday: Open 24 hours', 'Thursday: Open 24 hours', 'Friday: Open 24 hours', 'Saturday: Open 24 hours', 'Sunday: Open 24 hours'];{'northeast': {'lat': -27.59452337010728, 'lng': -48.54797127010728}, 'southwest': {'lat': -27.59722302989272, 'lng': -48.55067092989272}}
ChIJJZa6OyU4J5URfZulK5bTwQE;Florianópolis/SC;Innbox Hotel & Hostel - Centro;Rua Saldanha Marinho, 53 - Centro, Florianópolis;Indisponível;OPERATIONAL;-27.5985024;-48.5495405;Não disponível;{'northeast': {'lat': -27.59713727010728, 'lng': -48.54812262010728}, 'southwest': {'lat': -27.59983692989272, 'lng': -48.55082227989273}}
ChIJtSW33Do4J5URN_x2Ic6PI-8;Florianópolis/SC;Centro Sul Hotel;Av. Hercílio Luz, 652 - Centro, Florianópolis;Indisponível;OPERATIONAL;-27.5975394;-48.5477031;Não disponível;{'northeast': {'lat': -27.59616487010728, 'lng': -48.54639257010728}, 'southwest': {'lat': -27.59886452989272, 'lng': -48.54909222989272}}
ChIJlWXsjAM5J5URDzZmgzixLPE;Florianópolis/SC;OYO 2S Hotel;652, Av. Hercílio Luz, Centro - Centro, Florianópolis;True;OPERATIONAL;-27.5975382;-48.5477021;['Monday: Open 24 hours', 'Tuesday: Open 24 hours', 'Wednesday: Open 24 hours', 'Thursday: Open 24 hours', 'Friday: Open 24 hours', 'Saturday: Open 24 hours', 'Sunday: Open 24 hours'];{'northeast': {'lat': -27.59617152010728, 'lng': -48.54638597010727}, 'southwest': {'lat': -27.59887117989272, 'lng': -48.54908562989272}}
ChIJ4aG5Qzs4J5URYoAlZ7RUKLw;Florianópolis/SC;Rede Andrade Floph Hotel;R. Artista Bitencourt, 14 - Centro, Florianópolis;True;OPERATIONAL;-27.5954576;-48.5479447;['Monday: Open 24 hours', 'Tuesday: Open 24 hours', 'Wednesday: Open 24 hours', 'Thursday: Open 24 hours', 'Friday: Open 24 hours', 'Saturday: Open 24 hours', 'Sunday: Open 24 hours'];{'northeast': {'lat': -27.59414602010727, 'lng': -48.54661967010728}, 'southwest': {'lat': -27.59684567989272, 'lng': -48.54931932989273}}
ChIJW96wRTs4J5URwOJph04OC4U;Florianópolis/SC;Hotel Évora;R. Artista Bitencourt, 14 - Centro, Florianópolis;Indisponível;OPERATIONAL;-27.5954586;-48.5479391;Não disponível;{'northeast': {'lat': -27.59415122010728, 'lng': -48.54661622010727}, 'southwest': {'lat': -27.59685087989272, 'lng': -48.54931587989272}}
ChIJ2fmv4zo4J5UR1DfZVR38oeE;Florianópolis/SC;Oscar Hotel;Av. Hercílio Luz, 760 - Centro, Florianópolis;Indisponível;OPERATIONAL;-27.5970249;-48.5468422;Não disponível;{'northeast': {'lat': -27.59564267010727, 'lng': -48.54550192010728}, 'southwest': {'lat': -27.59834232989272, 'lng': -48.54820157989272}}
ChIJ7yZMyjs4J5URn0fy0H1zp7A;Florianópolis/SC;Esquina 8 Confort Hostel;Av. Hercílio Luz, 1006 - Centro, Florianópolis;Indisponível;OPERATIONAL;-27.595818;-48.5448443;Não disponível;{'northeast': {'lat': -27.59445172010728, 'lng': -48.54357242010727}, 'southwest': {'lat': -27.59715137989272, 'lng': -48.54627207989272}}
ChIJHe6-y5g5J5UR5kDnDznxqpg;Florianópolis/SC;Bewiki Floripa Centro;R. Hermann Blumenau, 110 - Centro, Florianópolis;True;OPERATIONAL;-27.5942931;-48.5456885;['Monday: Open 24 hours', 'Tuesday: Open 24 hours', 'Wednesday: Open 24 hours', 'Thursday: Open 24 hours', 'Friday: Open 24 hours', 'Saturday: Open 24 hours', 'Sunday: Open 24 hours'];{'northeast': {'lat': -27.59288127010728, 'lng': -48.54426892010727}, 'southwest': {'lat': -27.59558092989272, 'lng': -48.54696857989271}}
ChIJ03d0bSI4J5URn9wRCY-FIJ8;Florianópolis/SC;Porto da Ilha Hotel;R. Dom Jaime Câmara, 84 - Centro, Florianópolis;True;OPERATIONAL;-27.5924857;-48.5520039;['Monday: Open 24 hours', 'Tuesday: Open 24 hours', 'Wednesday: Open 24 hours', 'Thursday: Open 24 hours', 'Friday: Open 24 hours', 'Saturday: Open 24 hours', 'Sunday: Open 24 hours'];{'northeast': {'lat': -27.59101472010727, 'lng': -48.55064247010728}, 'southwest': {'lat': -27.59371437989272, 'lng': -48.55334212989272}}
ChIJ-d-CsCE4J5URaVvH5ag3DH0;Florianópolis/SC;Faial Prime Suites;R. Felipe Schmidt, 603 - Centro, Florianópolis;True;OPERATIONAL;-27.594649;-48.555484;['Monday: Open 24 hours', 'Tuesday: Open 24 hours', 'Wednesday: Open 24 hours', 'Thursday: Open 24 hours', 'Friday: Open 24 hours', 'Saturday: Open 24 hours', 'Sunday: Open 24 hours'];{'northeast': {'lat': -27.59320222010728, 'lng': -48.55410077010728}, 'southwest': {'lat': -27.59590187989272, 'lng': -48.55680042989272}}
ChIJbfW8_iA4J5URBQ_TjbWrVY8;Florianópolis/SC;Hotel Farol da Ilha;R. Bento Gonçalves, 163 - Centro, Florianópolis;Indisponível;OPERATIONAL;-27.5948843;-48.5558314;Não disponível;{'northeast': {'lat': -27.59352887010728, 'lng': -48.55448667010728}, 'southwest': {'lat': -27.59622852989272, 'lng': -48.55718632989272}}
ChIJJ4iu9B84J5URpJOWQx-XDa4;Florianópolis/SC;Valerim Plaza Hotel;R. Felipe Schmidt, 705 - Centro, Florianópolis;True;OPERATIONAL;-27.5940512;-48.556315;['Monday: Open 24 hours', 'Tuesday: Open 24 hours', 'Wednesday: Open 24 hours', 'Thursday: Open 24 hours', 'Friday: Open 24 hours', 'Saturday: Open 24 hours', 'Sunday: Open 24 hours'];{'northeast': {'lat': -27.59264502010728, 'lng': -48.55491397010727}, 'southwest': {'lat': -27.59534467989273, 'lng': -48.55761362989272}}
ChIJvdMXdSI4J5URKEFek9kViFI;Florianópolis/SC;Rio Branco Apart Hotel;Av. Rio Branco, 369 - Centro, Florianópolis;True;OPERATIONAL;-27.5917599;-48.5546397;['Monday: Open 24 hours', 'Tuesday: Open 24 hours', 'Wednesday: Open 24 hours', 'Thursday: Open 24 hours', 'Friday: Open 24 hours', 'Saturday: Open 24 hours', 'Sunday: Open 24 hours'];{'northeast': {'lat': -27.59051737010728, 'lng': -48.55326322010728}, 'southwest': {'lat': -27.59321702989272, 'lng': -48.55596287989272}}
ChIJicZTVPU3J5UR0a0AMKkJWVA;Florianópolis/SC;Hotel Lumar;R. Conselheiro Mafra, 848 - Centro, Florianópolis;True;OPERATIONAL;-27.5940256;-48.5579634;['Monday: Open 24 hours', 'Tuesday: Open 24 hours', 'Wednesday: Open 24 hours', 'Thursday: Open 24 hours', 'Friday: Open 24 hours', 'Saturday: Open 24 hours', 'Sunday: Open 24 hours'];{'northeast': {'lat': -27.59276567010728, 'lng': -48.55666857010728}, 'southwest': {'lat': -27.59546532989272, 'lng': -48.55936822989272}}
ChIJOQkCECA4J5UR6K5sQ6YcDWE;Florianópolis/SC;EcoBox Hostel;R. Conselheiro Mafra, 847 - Centro, Florianópolis;True;OPERATIONAL;-27.5942902;-48.55813149999999;['Monday: Open 24 hours', 'Tuesday: Open 24 hours', 'Wednesday: Open 24 hours', 'Thursday: Open 24 hours', 'Friday: Open 24 hours', 'Saturday: Open 24 hours', 'Sunday: Open 24 hours'];{'northeast': {'lat': -27.59290537010728, 'lng': -48.55676027010727}, 'southwest': {'lat': -27.59560502989272, 'lng': -48.55945992989272}}
ChIJ2zvAmYo3J5URhiEa-ngW4E0;Florianópolis/SC;Hotel Intercity Florianópolis;Av. Paulo Fontes, 1210 - Centro, Florianópolis;True;OPERATIONAL;-27.5954561;-48.5588401;['Monday: Open 24 hours', 'Tuesday: Open 24 hours', 'Wednesday: Open 24 hours', 'Thursday: Open 24 hours', 'Friday: Open 24 hours', 'Saturday: Open 24 hours', 'Sunday: Open 24 hours'];{'northeast': {'lat': -27.59433937010728, 'lng': -48.55742272010727}, 'southwest': {'lat': -27.59703902989272, 'lng': -48.56012237989272}}
ChIJ21TOdxk4J5URVQf3uy3kVG4;Florianópolis/SC;LK DESIGN HOTEL FLORIANOPOLIS;R. Bocaiúva, 1755 - Centro, Florianópolis;True;OPERATIONAL;-27.5870568;-48.5513796;['Monday: Open 24 hours', 'Tuesday: Open 24 hours', 'Wednesday: Open 24 hours', 'Thursday: Open 24 hours', 'Friday: Open 24 hours', 'Saturday: Open 24 hours', 'Sunday: Open 24 hours'];{'northeast': {'lat': -27.58577502010728, 'lng': -48.54994782010727}, 'southwest': {'lat': -27.58847467989272, 'lng': -48.55264747989272}}
ChIJTbIXjxk4J5UR0YtL-wdLh1s;Florianópolis/SC;Novotel Florianopolis;Av. Jorn. Rubéns de Arruda Ramos, Number 2034 - Centro, Florianópolis;Indisponível;OPERATIONAL;-27.5864781;-48.5504599;Não disponível;{'northeast': {'lat': -27.58500887010728, 'lng': -48.54922737010728}, 'southwest': {'lat': -27.58770852989272, 'lng': -48.55192702989272}}
ChIJGeEklDI4J5UR6thQxLv3ZGI;Florianópolis/SC;Iate Hotel;R. Silva Jardim, 830 - Centro, Florianópolis;True;OPERATIONAL;-27.6078663;-48.5479969;['Monday: Open 24 hours', 'Tuesday: Open 24 hours', 'Wednesday: Open 24 hours', 'Thursday: Open 24 hours', 'Friday: Open 24 hours', 'Saturday: Open 24 hours', 'Sunday: Open 24 hours'];{'northeast': {'lat': -27.60652397010728, 'lng': -48.54662872010727}, 'southwest': {'lat': -27.60922362989272, 'lng': -48.54932837989272}}
