id;city_state;name;address;open_now;business_status;latitude;longitude;weekday_text;types;search_type;viewport
ChIJnUTLvOI9uAARgqFbrLYQCFo;Vitória/ES;tiago;Rua José Marcelino - Centro, Vitória;False;OPERATIONAL;-20.3203085;-40.3372432;"[""Não disponível""]";"[""point_of_interest"", ""establishment""]";theater;{'northeast': {'lat': -20.3189656197085, 'lng': -40.3358920197085}, 'southwest': {'lat': -20.3216635802915, 'lng': -40.33858998029149}}
ChIJzVDT07o9uAARfCL9ZwD6m4Q;Vitória/ES;MSA;Rua Dionísio Rosendo, 155 - Centro, Vitória;False;OPERATIONAL;-20.3205229;-40.33741949999999;"[""Não disponível""]";"[""point_of_interest"", ""establishment""]";theater;{'northeast': {'lat': -20.3191337197085, 'lng': -40.33607576970849}, 'southwest': {'lat': -20.3218316802915, 'lng': -40.33877373029149}}
ChIJVbKHGQA9uAAR1Hq558ol_aQ;Vitória/ES;Centro Cultural Casa Verde;Rua Dionísio Rosendo, 120 - Centro, Vitória;False;OPERATIONAL;-20.3202893;-40.3371533;"[""Não disponível""]";"[""point_of_interest"", ""establishment""]";theater;{'northeast': {'lat': -20.3189794197085, 'lng': -40.3357863697085}, 'southwest': {'lat': -20.3216773802915, 'lng': -40.3384843302915}}
ChIJJcjz07o9uAARjYPrDNWNo-E;Vitória/ES;Vidraçaria Cristal;Rua Dionísio Rosendo, 120 - Centro, Vitória;True;OPERATIONAL;-20.3202893;-40.3371533;"[""segunda-feira: 08:00 – 18:00"", ""terça-feira: 08:00 – 18:00"", ""quarta-feira: 08:00 – 18:00"", ""quinta-feira: 08:00 – 18:00"", ""sexta-feira: 08:00 – 18:00"", ""sábado: Fechado"", ""domingo: Fechado""]";"[""point_of_interest"", ""establishment""]";theater;{'northeast': {'lat': -20.3189791697085, 'lng': -40.3357870697085}, 'southwest': {'lat': -20.3216771302915, 'lng': -40.3384850302915}}
ChIJ_9lnNqU9uAARu_G4r-RWods;Vitória/ES;Associação Profissional Trab de Bloco Portos;Rua José Marcelino, 55 - Centro, Vitória;False;OPERATIONAL;-20.3202812;-40.3376503;"[""Não disponível""]";"[""point_of_interest"", ""establishment""]";theater;{'northeast': {'lat': -20.3189298197085, 'lng': -40.3363000197085}, 'southwest': {'lat': -20.3216277802915, 'lng': -40.3389979802915}}
ChIJI5JFxg09uAARQK7IGdTfWCw;Vitória/ES;Armazém do Campo - MST - ES;Rua Dionísio Rosendo, 120 - Centro, Vitória;True;OPERATIONAL;-20.3203413;-40.33715159999999;"[""segunda-feira: Fechado"", ""terça-feira: 12:00 – 18:00"", ""quarta-feira: 12:00 – 18:00"", ""quinta-feira: 12:00 – 18:00"", ""sexta-feira: 12:00 – 18:00"", ""sábado: 09:00 – 13:00"", ""domingo: Fechado""]";"[""store"", ""food"", ""point_of_interest"", ""establishment""]";theater;{'northeast': {'lat': -20.3189960197085, 'lng': -40.33580091970851}, 'southwest': {'lat': -20.3216939802915, 'lng': -40.33849888029151}}
ChIJ8bsEzro9uAARrFFJFJjWymM;Vitória/ES;Sindepres;Condomínio do Edifício Renata - Rua Dionísio Rosendo, 155 - Centro, Vitória;False;OPERATIONAL;-20.3205356;-40.33743129999999;"[""Não disponível""]";"[""point_of_interest"", ""establishment""]";theater;{'northeast': {'lat': -20.3191409697085, 'lng': -40.3360883697085}, 'southwest': {'lat': -20.3218389302915, 'lng': -40.33878633029149}}
ChIJz_aL07o9uAARanGGPz3wxos;Vitória/ES;Coelho e Friço Consultoria Jurídica;Condomínio do Edifício Renata - Rua Dionísio Rosendo, 155 - Centro, Vitória;False;OPERATIONAL;-20.3205356;-40.33743129999999;"[""Não disponível""]";"[""lawyer"", ""point_of_interest"", ""establishment""]";theater;{'northeast': {'lat': -20.3191409697085, 'lng': -40.3360883697085}, 'southwest': {'lat': -20.3218389302915, 'lng': -40.33878633029149}}
ChIJhTHc07o9uAARoNT0W8QqXOE;Vitória/ES;Idílio Bozi;Condomínio do Edifício Renata - Rua Dionísio Rosendo, 155 - Centro, Vitória;False;OPERATIONAL;-20.3205356;-40.33743129999999;"[""Não disponível""]";"[""lawyer"", ""point_of_interest"", ""establishment""]";theater;{'northeast': {'lat': -20.3191409697085, 'lng': -40.3360883697085}, 'southwest': {'lat': -20.3218389302915, 'lng': -40.33878633029149}}
ChIJhTHc07o9uAARYzVr0IrC-NM;Vitória/ES;Lisboa Advocacia;Condomínio do Edifício Renata - Rua Dionísio Rosendo, 155 - Centro, Vitória;False;OPERATIONAL;-20.3205356;-40.33743129999999;"[""Não disponível""]";"[""lawyer"", ""point_of_interest"", ""establishment""]";theater;{'northeast': {'lat': -20.3191409697085, 'lng': -40.3360883697085}, 'southwest': {'lat': -20.3218389302915, 'lng': -40.33878633029149}}
ChIJ9aJvncM9uAARDUKsfuiyEbo;Vitória/ES;BLACK HOUSE;Edifício Renata - Rua Dionísio Rosendo, 155 - 6º andar sala 601 - Centro, Vitória;True;OPERATIONAL;-20.3205413;-40.3374355;"[""segunda-feira: 10:00 – 18:00"", ""terça-feira: 10:00 – 18:00"", ""quarta-feira: 10:00 – 18:00"", ""quinta-feira: 10:00 – 18:00"", ""sexta-feira: 10:00 – 18:00"", ""sábado: 10:00 – 18:00"", ""domingo: Fechado""]";"[""point_of_interest"", ""establishment""]";theater;{'northeast': {'lat': -20.3191442697085, 'lng': -40.3360937697085}, 'southwest': {'lat': -20.32184223029151, 'lng': -40.3387917302915}}
ChIJP-yywfY9uAARfXlHOGGxnwI;Vitória/ES;Nat Bleidorn Tattoo;edificio renata, Rua Dionísio Rosendo, 155 - sala 601 - Centro, Vitória;False;OPERATIONAL;-20.3205413;-40.3374355;"[""Não disponível""]";"[""store"", ""point_of_interest"", ""establishment""]";theater;{'northeast': {'lat': -20.3191442697085, 'lng': -40.3360937697085}, 'southwest': {'lat': -20.32184223029151, 'lng': -40.3387917302915}}
ChIJsy21qt6A0yQR3ChDpsBYhwc;Vitória/ES;Unplanned Soluções em TI;Rua Dionísio Rosendo, 155 - Centro, Vitória;True;OPERATIONAL;-20.3205417;-40.3374371;"[""segunda-feira: 08:30 – 17:30"", ""terça-feira: 08:30 – 17:30"", ""quarta-feira: 08:30 – 17:30"", ""quinta-feira: 08:30 – 17:30"", ""sexta-feira: 08:30 – 17:30"", ""sábado: Fechado"", ""domingo: Fechado""]";"[""point_of_interest"", ""establishment""]";theater;{'northeast': {'lat': -20.3191461697085, 'lng': -40.3360949197085}, 'southwest': {'lat': -20.3218441302915, 'lng': -40.3387928802915}}
ChIJ8aZaZD89uAARzVi8CxajLlE;Vitória/ES;Danni Piercer - Estúdio de piercing;Rua Dionísio Rosendo, 155 - Centro, Vitória;True;OPERATIONAL;-20.3205417;-40.3374371;"[""segunda-feira: 09:00 – 18:00"", ""terça-feira: 09:00 – 18:00"", ""quarta-feira: 09:00 – 18:00"", ""quinta-feira: 09:00 – 18:00"", ""sexta-feira: 09:00 – 18:00"", ""sábado: 09:00 – 15:00"", ""domingo: Fechado""]";"[""store"", ""point_of_interest"", ""establishment""]";theater;{'northeast': {'lat': -20.3191444697085, 'lng': -40.33609456970849}, 'southwest': {'lat': -20.32184243029151, 'lng': -40.33879253029149}}
ChIJfUwFM6U9uAARecfWfOTuwfg;Vitória/ES;Catedral Metropolitana de Nossa Senhora da Vitória;Praça Dom Luís Scortegagna, s/n - Centro, Vitória;True;OPERATIONAL;-20.3200464;-40.3373655;"[""segunda-feira: 07:00 – 19:00"", ""terça-feira: 07:00 – 19:00"", ""quarta-feira: 07:00 – 19:00"", ""quinta-feira: 07:00 – 19:00"", ""sexta-feira: 07:00 – 19:00"", ""sábado: 07:00 – 19:00"", ""domingo: 07:00 – 19:00""]";"[""tourist_attraction"", ""church"", ""place_of_worship"", ""point_of_interest"", ""establishment""]";theater;{'northeast': {'lat': -20.3188205197085, 'lng': -40.3359719197085}, 'southwest': {'lat': -20.3215184802915, 'lng': -40.3386698802915}}
ChIJhTHc07o9uAARsUMxxcrr5i0;Vitória/ES;Ajudes - Associação dos Servidores do Poder Judiciário no Estado do Espírito Santo;Edifício Renata - Rua Dionísio Rosendo, 155 - Sala 203 - Centro, Vitória;False;OPERATIONAL;-20.3205016;-40.33758110000001;"[""Não disponível""]";"[""point_of_interest"", ""establishment""]";theater;{'northeast': {'lat': -20.3191321197085, 'lng': -40.3362305697085}, 'southwest': {'lat': -20.3218300802915, 'lng': -40.3389285302915}}
ChIJOZ3fFHs9uAARLRYCdhGYfXg;Vitória/ES;Sr Motok;Rua Pedro Palácios - Centro, Vitória;True;OPERATIONAL;-20.3204518;-40.33763930000001;"[""segunda-feira: 07:00 – 18:00"", ""terça-feira: 07:00 – 18:00"", ""quarta-feira: 07:00 – 18:00"", ""quinta-feira: 07:00 – 18:00"", ""sexta-feira: 07:00 – 18:00"", ""sábado: 07:00 – 12:00"", ""domingo: Fechado""]";"[""point_of_interest"", ""establishment""]";theater;{'northeast': {'lat': -20.3190683697085, 'lng': -40.33628791970851}, 'southwest': {'lat': -20.3217663302915, 'lng': -40.3389858802915}}
ChIJ-6IQAgA9uAAR81SmjwaaLe8;Vitória/ES;Antigo pelourinho da Vila da Vitória;Centro, Vitória;False;OPERATIONAL;-20.3201478;-40.3376425;"[""Não disponível""]";"[""point_of_interest"", ""establishment""]";theater;{'northeast': {'lat': -20.3188070197085, 'lng': -40.3363499697085}, 'southwest': {'lat': -20.3215049802915, 'lng': -40.3390479302915}}
ChIJhVpWxbo9uAARdSwm_M_PNZY;Vitória/ES;Loja Maçônica Martines de Pasqually nº 102 - GLMEES;Rua Dionísio Rosendo, 157 - Centro, Vitória;False;OPERATIONAL;-20.3205758;-40.3374887;"[""segunda-feira: 19:30 – 21:30"", ""terça-feira: Fechado"", ""quarta-feira: Fechado"", ""quinta-feira: Fechado"", ""sexta-feira: Fechado"", ""sábado: Fechado"", ""domingo: Fechado""]";"[""place_of_worship"", ""point_of_interest"", ""establishment""]";theater;{'northeast': {'lat': -20.3191640697085, 'lng': -40.3361424197085}, 'southwest': {'lat': -20.3218620302915, 'lng': -40.33884038029149}}
ChIJKUL6zbo9uAAR0TpF3dG4XdE;Vitória/ES;Rubim & Zanetti Advogados Associados;Rua Dionísio Rosendo, 155 - Centro, Vitória;True;OPERATIONAL;-20.3205581;-40.3375427;"[""segunda-feira: 09:00 – 17:00"", ""terça-feira: 09:00 – 17:00"", ""quarta-feira: 09:00 – 17:00"", ""quinta-feira: 09:00 – 17:00"", ""sexta-feira: 09:00 – 17:00"", ""sábado: Fechado"", ""domingo: Fechado""]";"[""point_of_interest"", ""establishment""]";theater;{'northeast': {'lat': -20.3191546197085, 'lng': -40.33619486970851}, 'southwest': {'lat': -20.3218525802915, 'lng': -40.3388928302915}}
